{
  "timestamp": "2026-03-07T23:27:17.985494",
  "total_cities": 19,
  "high_priority_count": 2,
  "cities": [
    {
      "name": "Porto Alegre",
      "state": "RS",
      "lat": -30.0346,
      "lng": -51.2177,
      "precip_24h": 6.8,
      "precip_max_7d": 6.8,
      "precip_total_7d": 15.5,
      "risk_today": "green",
      "risk_week": "green",
      "overall_risk": "green",
      "dates": [
        "2026-03-07",
        "2026-03-08",
        "2026-03-09",
        "2026-03-10",
        "2026-03-11",
        "2026-03-12",
        "2026-03-13"
      ]
    },
    {
      "name": "Canoas",
      "state": "RS",
      "lat": -29.9177,
      "lng": -51.1836,
      "precip_24h": 4.4,
      "precip_max_7d": 4.4,
      "precip_total_7d": 13.0,
      "risk_today": "green",
      "risk_week": "green",
      "overall_risk": "green",
      "dates": [
        "2026-03-07",
        "2026-03-08",
        "2026-03-09",
        "2026-03-10",
        "2026-03-11",
        "2026-03-12",
        "2026-03-13"
      ]
    },
    {
      "name": "Belo Horizonte",
      "state": "MG",
      "lat": -19.9167,
      "lng": -43.9345,
      "precip_24h": 0.6,
      "precip_max_7d": 26.7,
      "precip_total_7d": 58.4,
      "risk_today": "green",
      "risk_week": "yellow",
      "overall_risk": "yellow",
      "dates": [
        "2026-03-07",
        "2026-03-08",
        "2026-03-09",
        "2026-03-10",
        "2026-03-11",
        "2026-03-12",
        "2026-03-13"
      ]
    },
    {
      "name": "Juiz de Fora",
      "state": "MG",
      "lat": -21.7617,
      "lng": -43.3217,
      "precip_24h": 5.3,
      "precip_max_7d": 6.9,
      "precip_total_7d": 28.4,
      "risk_today": "green",
      "risk_week": "green",
      "overall_risk": "green",
      "dates": [
        "2026-03-07",
        "2026-03-08",
        "2026-03-09",
        "2026-03-10",
        "2026-03-11",
        "2026-03-12",
        "2026-03-13"
      ]
    },
    {
      "name": "Rio de Janeiro",
      "state": "RJ",
      "lat": -22.9068,
      "lng": -43.1729,
      "precip_24h": 4.4,
      "precip_max_7d": 4.4,
      "precip_total_7d": 11.6,
      "risk_today": "green",
      "risk_week": "green",
      "overall_risk": "green",
      "dates": [
        "2026-03-07",
        "2026-03-08",
        "2026-03-09",
        "2026-03-10",
        "2026-03-11",
        "2026-03-12",
        "2026-03-13"
      ]
    },
    {
      "name": "Niter\u00f3i",
      "state": "RJ",
      "lat": -22.8833,
      "lng": -43.1036,
      "precip_24h": 0.0,
      "precip_max_7d": 10.1,
      "precip_total_7d": 16.8,
      "risk_today": "green",
      "risk_week": "yellow",
      "overall_risk": "yellow",
      "dates": [
        "2026-03-07",
        "2026-03-08",
        "2026-03-09",
        "2026-03-10",
        "2026-03-11",
        "2026-03-12",
        "2026-03-13"
      ]
    },
    {
      "name": "S\u00e3o Paulo",
      "state": "SP",
      "lat": -23.5505,
      "lng": -46.6333,
      "precip_24h": 5.5,
      "precip_max_7d": 33.5,
      "precip_total_7d": 57.5,
      "risk_today": "green",
      "risk_week": "orange",
      "overall_risk": "orange",
      "dates": [
        "2026-03-07",
        "2026-03-08",
        "2026-03-09",
        "2026-03-10",
        "2026-03-11",
        "2026-03-12",
        "2026-03-13"
      ]
    },
    {
      "name": "Campinas",
      "state": "SP",
      "lat": -22.9099,
      "lng": -47.0626,
      "precip_24h": 12.7,
      "precip_max_7d": 12.7,
      "precip_total_7d": 46.1,
      "risk_today": "yellow",
      "risk_week": "yellow",
      "overall_risk": "yellow",
      "dates": [
        "2026-03-07",
        "2026-03-08",
        "2026-03-09",
        "2026-03-10",
        "2026-03-11",
        "2026-03-12",
        "2026-03-13"
      ]
    },
    {
      "name": "Recife",
      "state": "PE",
      "lat": -8.0476,
      "lng": -34.877,
      "precip_24h": 1.3,
      "precip_max_7d": 2.9,
      "precip_total_7d": 10.0,
      "risk_today": "green",
      "risk_week": "green",
      "overall_risk": "green",
      "dates": [
        "2026-03-07",
        "2026-03-08",
        "2026-03-09",
        "2026-03-10",
        "2026-03-11",
        "2026-03-12",
        "2026-03-13"
      ]
    },
    {
      "name": "Salvador",
      "state": "BA",
      "lat": -12.9714,
      "lng": -38.5014,
      "precip_24h": 2.1,
      "precip_max_7d": 4.4,
      "precip_total_7d": 10.5,
      "risk_today": "green",
      "risk_week": "green",
      "overall_risk": "green",
      "dates": [
        "2026-03-07",
        "2026-03-08",
        "2026-03-09",
        "2026-03-10",
        "2026-03-11",
        "2026-03-12",
        "2026-03-13"
      ]
    },
    {
      "name": "Blumenau",
      "state": "SC",
      "lat": -26.9194,
      "lng": -49.0661,
      "precip_24h": 7.7,
      "precip_max_7d": 7.7,
      "precip_total_7d": 13.2,
      "risk_today": "green",
      "risk_week": "green",
      "overall_risk": "green",
      "dates": [
        "2026-03-07",
        "2026-03-08",
        "2026-03-09",
        "2026-03-10",
        "2026-03-11",
        "2026-03-12",
        "2026-03-13"
      ]
    },
    {
      "name": "Florian\u00f3polis",
      "state": "SC",
      "lat": -27.5954,
      "lng": -48.548,
      "precip_24h": 0.5,
      "precip_max_7d": 12.3,
      "precip_total_7d": 15.3,
      "risk_today": "green",
      "risk_week": "yellow",
      "overall_risk": "yellow",
      "dates": [
        "2026-03-07",
        "2026-03-08",
        "2026-03-09",
        "2026-03-10",
        "2026-03-11",
        "2026-03-12",
        "2026-03-13"
      ]
    },
    {
      "name": "Curitiba",
      "state": "PR",
      "lat": -25.4284,
      "lng": -49.2733,
      "precip_24h": 0.2,
      "precip_max_7d": 17.3,
      "precip_total_7d": 33.5,
      "risk_today": "green",
      "risk_week": "yellow",
      "overall_risk": "yellow",
      "dates": [
        "2026-03-07",
        "2026-03-08",
        "2026-03-09",
        "2026-03-10",
        "2026-03-11",
        "2026-03-12",
        "2026-03-13"
      ]
    },
    {
      "name": "Fortaleza",
      "state": "CE",
      "lat": -3.7172,
      "lng": -38.5433,
      "precip_24h": 0.0,
      "precip_max_7d": 7.6,
      "precip_total_7d": 23.4,
      "risk_today": "green",
      "risk_week": "green",
      "overall_risk": "green",
      "dates": [
        "2026-03-07",
        "2026-03-08",
        "2026-03-09",
        "2026-03-10",
        "2026-03-11",
        "2026-03-12",
        "2026-03-13"
      ]
    },
    {
      "name": "Manaus",
      "state": "AM",
      "lat": -3.119,
      "lng": -60.0217,
      "precip_24h": 13.1,
      "precip_max_7d": 34.8,
      "precip_total_7d": 92.1,
      "risk_today": "yellow",
      "risk_week": "orange",
      "overall_risk": "orange",
      "dates": [
        "2026-03-07",
        "2026-03-08",
        "2026-03-09",
        "2026-03-10",
        "2026-03-11",
        "2026-03-12",
        "2026-03-13"
      ]
    },
    {
      "name": "Bras\u00edlia",
      "state": "DF",
      "lat": -15.8267,
      "lng": -47.9218,
      "precip_24h": 0.5,
      "precip_max_7d": 15.9,
      "precip_total_7d": 40.3,
      "risk_today": "green",
      "risk_week": "yellow",
      "overall_risk": "yellow",
      "dates": [
        "2026-03-07",
        "2026-03-08",
        "2026-03-09",
        "2026-03-10",
        "2026-03-11",
        "2026-03-12",
        "2026-03-13"
      ]
    },
    {
      "name": "Cachoeiro de Itapemirim",
      "state": "RJ",
      "lat": -20.85,
      "lng": -41.1,
      "precip_24h": 7.9,
      "precip_max_7d": 27.0,
      "precip_total_7d": 40.9,
      "risk_today": "green",
      "risk_week": "yellow",
      "overall_risk": "yellow",
      "dates": [
        "2026-03-07",
        "2026-03-08",
        "2026-03-09",
        "2026-03-10",
        "2026-03-11",
        "2026-03-12",
        "2026-03-13"
      ]
    },
    {
      "name": "Carangola",
      "state": "MG",
      "lat": -20.7331,
      "lng": -42.4831,
      "precip_24h": 2.6,
      "precip_max_7d": 15.0,
      "precip_total_7d": 26.1,
      "risk_today": "green",
      "risk_week": "yellow",
      "overall_risk": "yellow",
      "dates": [
        "2026-03-07",
        "2026-03-08",
        "2026-03-09",
        "2026-03-10",
        "2026-03-11",
        "2026-03-12",
        "2026-03-13"
      ]
    },
    {
      "name": "Mariana",
      "state": "MG",
      "lat": -20.3775,
      "lng": -43.4168,
      "precip_24h": 7.4,
      "precip_max_7d": 19.8,
      "precip_total_7d": 61.5,
      "risk_today": "green",
      "risk_week": "yellow",
      "overall_risk": "yellow",
      "dates": [
        "2026-03-07",
        "2026-03-08",
        "2026-03-09",
        "2026-03-10",
        "2026-03-11",
        "2026-03-12",
        "2026-03-13"
      ]
    }
  ],
  "high_priority": [
    {
      "name": "S\u00e3o Paulo",
      "state": "SP",
      "lat": -23.5505,
      "lng": -46.6333,
      "precip_24h": 5.5,
      "precip_max_7d": 33.5,
      "precip_total_7d": 57.5,
      "risk_today": "green",
      "risk_week": "orange",
      "overall_risk": "orange",
      "dates": [
        "2026-03-07",
        "2026-03-08",
        "2026-03-09",
        "2026-03-10",
        "2026-03-11",
        "2026-03-12",
        "2026-03-13"
      ]
    },
    {
      "name": "Manaus",
      "state": "AM",
      "lat": -3.119,
      "lng": -60.0217,
      "precip_24h": 13.1,
      "precip_max_7d": 34.8,
      "precip_total_7d": 92.1,
      "risk_today": "yellow",
      "risk_week": "orange",
      "overall_risk": "orange",
      "dates": [
        "2026-03-07",
        "2026-03-08",
        "2026-03-09",
        "2026-03-10",
        "2026-03-11",
        "2026-03-12",
        "2026-03-13"
      ]
    }
  ]
}