{
  "timestamp": "2026-03-08T10:11:48.893239",
  "cities": [
    {
      "name": "Porto Alegre",
      "state": "RS",
      "lat": -30.0346,
      "lng": -51.2177,
      "precip_24h": 0.8,
      "precip_max_7d": 3.0,
      "precip_total_7d": 5.4,
      "risk_today": "green",
      "risk_week": "green",
      "overall_risk": "green",
      "dates": [
        "2026-03-08",
        "2026-03-09",
        "2026-03-10",
        "2026-03-11",
        "2026-03-12",
        "2026-03-13",
        "2026-03-14"
      ]
    },
    {
      "name": "Canoas",
      "state": "RS",
      "lat": -29.9177,
      "lng": -51.1836,
      "precip_24h": 0.8,
      "precip_max_7d": 2.1,
      "precip_total_7d": 5.7,
      "risk_today": "green",
      "risk_week": "green",
      "overall_risk": "green",
      "dates": [
        "2026-03-08",
        "2026-03-09",
        "2026-03-10",
        "2026-03-11",
        "2026-03-12",
        "2026-03-13",
        "2026-03-14"
      ]
    },
    {
      "name": "Lajeado",
      "state": "RS",
      "lat": -29.1167,
      "lng": -51.9667,
      "precip_24h": 0.0,
      "precip_max_7d": 6.3,
      "precip_total_7d": 17.3,
      "risk_today": "green",
      "risk_week": "green",
      "overall_risk": "green",
      "dates": [
        "2026-03-08",
        "2026-03-09",
        "2026-03-10",
        "2026-03-11",
        "2026-03-12",
        "2026-03-13",
        "2026-03-14"
      ]
    },
    {
      "name": "Rio de Janeiro",
      "state": "RJ",
      "lat": -22.9068,
      "lng": -43.1729,
      "precip_24h": 0.9,
      "precip_max_7d": 8.7,
      "precip_total_7d": 21.8,
      "risk_today": "green",
      "risk_week": "green",
      "overall_risk": "green",
      "dates": [
        "2026-03-08",
        "2026-03-09",
        "2026-03-10",
        "2026-03-11",
        "2026-03-12",
        "2026-03-13",
        "2026-03-14"
      ]
    },
    {
      "name": "Niter\u00f3i",
      "state": "RJ",
      "lat": -22.8833,
      "lng": -43.1036,
      "precip_24h": 3.5,
      "precip_max_7d": 7.8,
      "precip_total_7d": 25.6,
      "risk_today": "green",
      "risk_week": "green",
      "overall_risk": "green",
      "dates": [
        "2026-03-08",
        "2026-03-09",
        "2026-03-10",
        "2026-03-11",
        "2026-03-12",
        "2026-03-13",
        "2026-03-14"
      ]
    },
    {
      "name": "S\u00e3o Paulo",
      "state": "SP",
      "lat": -23.5505,
      "lng": -46.6333,
      "precip_24h": 4.8,
      "precip_max_7d": 14.9,
      "precip_total_7d": 58.4,
      "risk_today": "green",
      "risk_week": "yellow",
      "overall_risk": "yellow",
      "dates": [
        "2026-03-08",
        "2026-03-09",
        "2026-03-10",
        "2026-03-11",
        "2026-03-12",
        "2026-03-13",
        "2026-03-14"
      ]
    },
    {
      "name": "Campinas",
      "state": "SP",
      "lat": -22.9099,
      "lng": -47.0626,
      "precip_24h": 0.0,
      "precip_max_7d": 20.4,
      "precip_total_7d": 63.5,
      "risk_today": "green",
      "risk_week": "yellow",
      "overall_risk": "yellow",
      "dates": [
        "2026-03-08",
        "2026-03-09",
        "2026-03-10",
        "2026-03-11",
        "2026-03-12",
        "2026-03-13",
        "2026-03-14"
      ]
    },
    {
      "name": "Belo Horizonte",
      "state": "MG",
      "lat": -19.9167,
      "lng": -43.9345,
      "precip_24h": 0.0,
      "precip_max_7d": 32.5,
      "precip_total_7d": 67.6,
      "risk_today": "green",
      "risk_week": "orange",
      "overall_risk": "orange",
      "dates": [
        "2026-03-08",
        "2026-03-09",
        "2026-03-10",
        "2026-03-11",
        "2026-03-12",
        "2026-03-13",
        "2026-03-14"
      ]
    },
    {
      "name": "Curitiba",
      "state": "PR",
      "lat": -25.4284,
      "lng": -49.2733,
      "precip_24h": 10.9,
      "precip_max_7d": 14.2,
      "precip_total_7d": 45.3,
      "risk_today": "yellow",
      "risk_week": "yellow",
      "overall_risk": "yellow",
      "dates": [
        "2026-03-08",
        "2026-03-09",
        "2026-03-10",
        "2026-03-11",
        "2026-03-12",
        "2026-03-13",
        "2026-03-14"
      ]
    },
    {
      "name": "Recife",
      "state": "PE",
      "lat": -8.0476,
      "lng": -34.877,
      "precip_24h": 1.2,
      "precip_max_7d": 3.0,
      "precip_total_7d": 7.6,
      "risk_today": "green",
      "risk_week": "green",
      "overall_risk": "green",
      "dates": [
        "2026-03-08",
        "2026-03-09",
        "2026-03-10",
        "2026-03-11",
        "2026-03-12",
        "2026-03-13",
        "2026-03-14"
      ]
    },
    {
      "name": "Salvador",
      "state": "BA",
      "lat": -12.9714,
      "lng": -38.5014,
      "precip_24h": 3.2,
      "precip_max_7d": 4.7,
      "precip_total_7d": 11.8,
      "risk_today": "green",
      "risk_week": "green",
      "overall_risk": "green",
      "dates": [
        "2026-03-08",
        "2026-03-09",
        "2026-03-10",
        "2026-03-11",
        "2026-03-12",
        "2026-03-13",
        "2026-03-14"
      ]
    },
    {
      "name": "Fortaleza",
      "state": "CE",
      "lat": -3.7172,
      "lng": -38.5433,
      "precip_24h": 0.8,
      "precip_max_7d": 7.8,
      "precip_total_7d": 21.7,
      "risk_today": "green",
      "risk_week": "green",
      "overall_risk": "green",
      "dates": [
        "2026-03-08",
        "2026-03-09",
        "2026-03-10",
        "2026-03-11",
        "2026-03-12",
        "2026-03-13",
        "2026-03-14"
      ]
    },
    {
      "name": "Manaus",
      "state": "AM",
      "lat": -3.119,
      "lng": -60.0217,
      "precip_24h": 6.7,
      "precip_max_7d": 29.1,
      "precip_total_7d": 100.7,
      "risk_today": "green",
      "risk_week": "yellow",
      "overall_risk": "yellow",
      "dates": [
        "2026-03-08",
        "2026-03-09",
        "2026-03-10",
        "2026-03-11",
        "2026-03-12",
        "2026-03-13",
        "2026-03-14"
      ]
    },
    {
      "name": "Bras\u00edlia",
      "state": "DF",
      "lat": -15.8267,
      "lng": -47.9218,
      "precip_24h": 0.0,
      "precip_max_7d": 2.9,
      "precip_total_7d": 10.0,
      "risk_today": "green",
      "risk_week": "green",
      "overall_risk": "green",
      "dates": [
        "2026-03-08",
        "2026-03-09",
        "2026-03-10",
        "2026-03-11",
        "2026-03-12",
        "2026-03-13",
        "2026-03-14"
      ]
    },
    {
      "name": "Vit\u00f3ria",
      "state": "ES",
      "lat": -20.3155,
      "lng": -40.3128,
      "precip_24h": 1.0,
      "precip_max_7d": 7.3,
      "precip_total_7d": 9.9,
      "risk_today": "green",
      "risk_week": "green",
      "overall_risk": "green",
      "dates": [
        "2026-03-08",
        "2026-03-09",
        "2026-03-10",
        "2026-03-11",
        "2026-03-12",
        "2026-03-13",
        "2026-03-14"
      ]
    },
    {
      "name": "Goi\u00e2nia",
      "state": "GO",
      "lat": -16.6799,
      "lng": -49.255,
      "precip_24h": 0.9,
      "precip_max_7d": 16.5,
      "precip_total_7d": 58.5,
      "risk_today": "green",
      "risk_week": "yellow",
      "overall_risk": "yellow",
      "dates": [
        "2026-03-08",
        "2026-03-09",
        "2026-03-10",
        "2026-03-11",
        "2026-03-12",
        "2026-03-13",
        "2026-03-14"
      ]
    },
    {
      "name": "Natal",
      "state": "RN",
      "lat": -5.7945,
      "lng": -35.211,
      "precip_24h": 1.5,
      "precip_max_7d": 8.3,
      "precip_total_7d": 14.0,
      "risk_today": "green",
      "risk_week": "green",
      "overall_risk": "green",
      "dates": [
        "2026-03-08",
        "2026-03-09",
        "2026-03-10",
        "2026-03-11",
        "2026-03-12",
        "2026-03-13",
        "2026-03-14"
      ]
    },
    {
      "name": "Bel\u00e9m",
      "state": "PA",
      "lat": -1.4558,
      "lng": -48.5039,
      "precip_24h": 8.0,
      "precip_max_7d": 8.1,
      "precip_total_7d": 34.4,
      "risk_today": "green",
      "risk_week": "green",
      "overall_risk": "green",
      "dates": [
        "2026-03-08",
        "2026-03-09",
        "2026-03-10",
        "2026-03-11",
        "2026-03-12",
        "2026-03-13",
        "2026-03-14"
      ]
    },
    {
      "name": "Florian\u00f3polis",
      "state": "SC",
      "lat": -27.5954,
      "lng": -48.548,
      "precip_24h": 0.0,
      "precip_max_7d": 12.4,
      "precip_total_7d": 20.8,
      "risk_today": "green",
      "risk_week": "yellow",
      "overall_risk": "yellow",
      "dates": [
        "2026-03-08",
        "2026-03-09",
        "2026-03-10",
        "2026-03-11",
        "2026-03-12",
        "2026-03-13",
        "2026-03-14"
      ]
    },
    {
      "name": "Juiz de Fora",
      "state": "MG",
      "lat": -21.7617,
      "lng": -43.3217,
      "precip_24h": 2.5,
      "precip_max_7d": 20.5,
      "precip_total_7d": 41.7,
      "risk_today": "green",
      "risk_week": "yellow",
      "overall_risk": "yellow",
      "dates": [
        "2026-03-08",
        "2026-03-09",
        "2026-03-10",
        "2026-03-11",
        "2026-03-12",
        "2026-03-13",
        "2026-03-14"
      ]
    },
    {
      "name": "Ub\u00e1",
      "state": "MG",
      "lat": -21.1144,
      "lng": -42.9407,
      "precip_24h": 0.8,
      "precip_max_7d": 18.5,
      "precip_total_7d": 54.6,
      "risk_today": "green",
      "risk_week": "yellow",
      "overall_risk": "yellow",
      "dates": [
        "2026-03-08",
        "2026-03-09",
        "2026-03-10",
        "2026-03-11",
        "2026-03-12",
        "2026-03-13",
        "2026-03-14"
      ]
    },
    {
      "name": "Rio das Ostras",
      "state": "RJ",
      "lat": -22.7483,
      "lng": -41.9456,
      "precip_24h": 0.0,
      "precip_max_7d": 4.9,
      "precip_total_7d": 9.700000000000001,
      "risk_today": "green",
      "risk_week": "green",
      "overall_risk": "green",
      "dates": [
        "2026-03-08",
        "2026-03-09",
        "2026-03-10",
        "2026-03-11",
        "2026-03-12",
        "2026-03-13",
        "2026-03-14"
      ]
    },
    {
      "name": "Mariana",
      "state": "MG",
      "lat": -20.3775,
      "lng": -43.4168,
      "precip_24h": 0.8,
      "precip_max_7d": 26.6,
      "precip_total_7d": 78.1,
      "risk_today": "green",
      "risk_week": "yellow",
      "overall_risk": "yellow",
      "dates": [
        "2026-03-08",
        "2026-03-09",
        "2026-03-10",
        "2026-03-11",
        "2026-03-12",
        "2026-03-13",
        "2026-03-14"
      ]
    },
    {
      "name": "Carangola",
      "state": "MG",
      "lat": -20.7331,
      "lng": -42.4831,
      "precip_24h": 1.7,
      "precip_max_7d": 10.9,
      "precip_total_7d": 24.6,
      "risk_today": "green",
      "risk_week": "yellow",
      "overall_risk": "yellow",
      "dates": [
        "2026-03-08",
        "2026-03-09",
        "2026-03-10",
        "2026-03-11",
        "2026-03-12",
        "2026-03-13",
        "2026-03-14"
      ]
    },
    {
      "name": "Barra do Pira\u00ed",
      "state": "RJ",
      "lat": -22.4719,
      "lng": -43.8278,
      "precip_24h": 2.0,
      "precip_max_7d": 11.4,
      "precip_total_7d": 36.3,
      "risk_today": "green",
      "risk_week": "yellow",
      "overall_risk": "yellow",
      "dates": [
        "2026-03-08",
        "2026-03-09",
        "2026-03-10",
        "2026-03-11",
        "2026-03-12",
        "2026-03-13",
        "2026-03-14"
      ]
    },
    {
      "name": "Volta Redonda",
      "state": "RJ",
      "lat": -22.4932,
      "lng": -44.1017,
      "precip_24h": 3.1,
      "precip_max_7d": 22.8,
      "precip_total_7d": 51.300000000000004,
      "risk_today": "green",
      "risk_week": "yellow",
      "overall_risk": "yellow",
      "dates": [
        "2026-03-08",
        "2026-03-09",
        "2026-03-10",
        "2026-03-11",
        "2026-03-12",
        "2026-03-13",
        "2026-03-14"
      ]
    },
    {
      "name": "Petr\u00f3polis",
      "state": "RJ",
      "lat": -22.505,
      "lng": -43.1789,
      "precip_24h": 6.5,
      "precip_max_7d": 13.7,
      "precip_total_7d": 37.6,
      "risk_today": "green",
      "risk_week": "yellow",
      "overall_risk": "yellow",
      "dates": [
        "2026-03-08",
        "2026-03-09",
        "2026-03-10",
        "2026-03-11",
        "2026-03-12",
        "2026-03-13",
        "2026-03-14"
      ]
    },
    {
      "name": "Teres\u00f3polis",
      "state": "RJ",
      "lat": -22.4123,
      "lng": -42.9632,
      "precip_24h": 0.0,
      "precip_max_7d": 10.0,
      "precip_total_7d": 27.2,
      "risk_today": "green",
      "risk_week": "yellow",
      "overall_risk": "yellow",
      "dates": [
        "2026-03-08",
        "2026-03-09",
        "2026-03-10",
        "2026-03-11",
        "2026-03-12",
        "2026-03-13",
        "2026-03-14"
      ]
    },
    {
      "name": "Nova Friburgo",
      "state": "RJ",
      "lat": -22.2818,
      "lng": -42.5346,
      "precip_24h": 0.0,
      "precip_max_7d": 11.2,
      "precip_total_7d": 27.3,
      "risk_today": "green",
      "risk_week": "yellow",
      "overall_risk": "yellow",
      "dates": [
        "2026-03-08",
        "2026-03-09",
        "2026-03-10",
        "2026-03-11",
        "2026-03-12",
        "2026-03-13",
        "2026-03-14"
      ]
    },
    {
      "name": "Silva Jardim",
      "state": "RJ",
      "lat": -22.6509,
      "lng": -42.7119,
      "precip_24h": 0.3,
      "precip_max_7d": 6.9,
      "precip_total_7d": 20.5,
      "risk_today": "green",
      "risk_week": "green",
      "overall_risk": "green",
      "dates": [
        "2026-03-08",
        "2026-03-09",
        "2026-03-10",
        "2026-03-11",
        "2026-03-12",
        "2026-03-13",
        "2026-03-14"
      ]
    },
    {
      "name": "Cachoeiro de Itapemirim",
      "state": "RJ",
      "lat": -20.85,
      "lng": -41.1,
      "precip_24h": 8.1,
      "precip_max_7d": 21.7,
      "precip_total_7d": 31.7,
      "risk_today": "green",
      "risk_week": "yellow",
      "overall_risk": "yellow",
      "dates": [
        "2026-03-08",
        "2026-03-09",
        "2026-03-10",
        "2026-03-11",
        "2026-03-12",
        "2026-03-13",
        "2026-03-14"
      ]
    }
  ]
}